{
  "type": "FeatureCollection",
  "features": [
    {
      "type": "Feature",
      "id": "11619590",
      "geometry": {
        "type": "Point",
        "coordinates": [
          -96.79702,
          32.7768669
        ]
      },
      "properties": {
        "xid": "N6990912652",
        "name": "Three Forms Vertebrae",
        "dist": 22.88909558,
        "rate": 1,
        "osm": "node/6990912652",
        "wikidata": "Q19759425",
        "kinds": "historic,monuments_and_memorials,urban_environment,cultural,interesting_places,sculptures,monuments"
      }
    },
    {
      "type": "Feature",
      "id": "11308231",
      "geometry": {
        "type": "Point",
        "coordinates": [
          -96.7969437,
          32.7770958
        ]
      },
      "properties": {
        "xid": "R8468255",
        "name": "Dallas City Hall Plaza",
        "dist": 47.91811666,
        "rate": 2,
        "osm": "relation/8468255",
        "wikidata": "Q49481709",
        "kinds": "urban_environment,gardens_and_parks,cultural,interesting_places"
      }
    },
    {
      "type": "Feature",
      "id": "10591078",
      "geometry": {
        "type": "Point",
        "coordinates": [
          -96.7977295,
          32.7768669
        ]
      },
      "properties": {
        "xid": "W610129849",
        "name": "",
        "dist": 73.27073268,
        "rate": 0,
        "osm": "way/610129849",
        "kinds": "fountains,cultural,urban_environment,interesting_places"
      }
    },
    {
      "type": "Feature",
      "id": "11342249",
      "geometry": {
        "type": "Point",
        "coordinates": [
          -96.7987595,
          32.7768669
        ]
      },
      "properties": {
        "xid": "N3236349961",
        "name": "Police Officers Memorial",
        "dist": 167.68502569,
        "rate": 1,
        "osm": "node/3236349961",
        "wikidata": "Q107322007",
        "kinds": "historic,monuments_and_memorials,interesting_places,monuments"
      }
    },
    {
      "type": "Feature",
      "id": "16045182",
      "geometry": {
        "type": "Point",
        "coordinates": [
          -96.7951202,
          32.7782211
        ]
      },
      "properties": {
        "xid": "Q107322244",
        "name": "Winnetka Heights Historic District",
        "dist": 245.75206652,
        "rate": 1,
        "wikidata": "Q107322244",
        "kinds": "historic,historical_places,interesting_places,historic_districts"
      }
    },
    {
      "type": "Feature",
      "id": "11803938",
      "geometry": {
        "type": "Point",
        "coordinates": [
          -96.7996368,
          32.7755966
        ]
      },
      "properties": {
        "xid": "W747131404",
        "name": "Confederate War Memorial",
        "dist": 274.97084724,
        "rate": 3,
        "osm": "way/747131404",
        "wikidata": "Q5159751",
        "kinds": "historic,monuments_and_memorials,burial_places,interesting_places,war_memorials,monuments"
      }
    },
    {
      "type": "Feature",
      "id": "11803936",
      "geometry": {
        "type": "Point",
        "coordinates": [
          -96.8001404,
          32.7759171
        ]
      },
      "properties": {
        "xid": "W469277144",
        "name": "",
        "dist": 306.62963708,
        "rate": 1,
        "osm": "way/469277144",
        "wikidata": "Q7196750",
        "kinds": "cemeteries,historic,burial_places,interesting_places"
      }
    },
    {
      "type": "Feature",
      "id": "11492711",
      "geometry": {
        "type": "Point",
        "coordinates": [
          -96.8004303,
          32.7760887
        ]
      },
      "properties": {
        "xid": "W27129901",
        "name": "Pioneer Park",
        "dist": 328.96860149,
        "rate": 3,
        "osm": "way/27129901",
        "wikidata": "Q7196763",
        "kinds": "urban_environment,gardens_and_parks,cultural,interesting_places"
      }
    },
    {
      "type": "Feature",
      "id": "15157414",
      "geometry": {
        "type": "Point",
        "coordinates": [
          -96.7988968,
          32.7793999
        ]
      },
      "properties": {
        "xid": "Q7994115",
        "name": "Whitacre Tower",
        "dist": 352.3392788,
        "rate": 3,
        "wikidata": "Q7994115",
        "kinds": "skyscrapers,architecture,interesting_places"
      }
    },
    {
      "type": "Feature",
      "id": "15836603",
      "geometry": {
        "type": "Point",
        "coordinates": [
          -96.8003006,
          32.7790985
        ]
      },
      "properties": {
        "xid": "Q5211326",
        "name": "Dallas Downtown Historic District",
        "dist": 411.40840118,
        "rate": 7,
        "wikidata": "Q5211326",
        "kinds": "historic,historical_places,interesting_places,historic_districts"
      }
    },
    {
      "type": "Feature",
      "id": "11511439",
      "geometry": {
        "type": "Point",
        "coordinates": [
          -96.793663,
          32.7791405
        ]
      },
      "properties": {
        "xid": "W30897971",
        "name": "First Presbyterian Church of Dallas",
        "dist": 415.29734462,
        "rate": 3,
        "osm": "way/30897971",
        "wikidata": "Q5453682",
        "kinds": "religion,churches,interesting_places,other_churches"
      }
    },
    {
      "type": "Feature",
      "id": "11803939",
      "geometry": {
        "type": "Point",
        "coordinates": [
          -96.7990723,
          32.7801552
        ]
      },
      "properties": {
        "xid": "W30898509",
        "name": "magnolia hotel downtown dallas",
        "dist": 433.5077794,
        "rate": 7,
        "osm": "way/30898509",
        "wikidata": "Q12061439",
        "kinds": "skyscrapers,architecture,accomodations,interesting_places,other_hotels"
      }
    },
    {
      "type": "Feature",
      "id": "15827208",
      "geometry": {
        "type": "Point",
        "coordinates": [
          -96.7996597,
          32.7799797
        ]
      },
      "properties": {
        "xid": "Q366005",
        "name": "Adolphus Hotel",
        "dist": 444.83510895,
        "rate": 7,
        "wikidata": "Q366005",
        "kinds": "architecture,skyscrapers,interesting_places"
      }
    },
    {
      "type": "Feature",
      "id": "15156019",
      "geometry": {
        "type": "Point",
        "coordinates": [
          -96.8013077,
          32.7784958
        ]
      },
      "properties": {
        "xid": "Q7419567",
        "name": "Santa Fe Terminal Complex",
        "dist": 453.01062793,
        "rate": 7,
        "wikidata": "Q7419567",
        "kinds": "historic_architecture,architecture,interesting_places,other_buildings_and_structures"
      }
    },
    {
      "type": "Feature",
      "id": "15382555",
      "geometry": {
        "type": "Point",
        "coordinates": [
          -96.7967987,
          32.7807999
        ]
      },
      "properties": {
        "xid": "Q6818031",
        "name": "Mercantile National Bank Building",
        "dist": 459.00009037,
        "rate": 3,
        "wikidata": "Q6818031",
        "kinds": "skyscrapers,architecture,interesting_places"
      }
    },
    {
      "type": "Feature",
      "id": "14911646",
      "geometry": {
        "type": "Point",
        "coordinates": [
          -96.7934036,
          32.7795601
        ]
      },
      "properties": {
        "xid": "Q107330477",
        "name": "First Presbyterian Church",
        "dist": 464.80483484,
        "rate": 1,
        "wikidata": "Q107330477",
        "kinds": "religion,churches,interesting_places,other_churches"
      }
    },
    {
      "type": "Feature",
      "id": "14470817",
      "geometry": {
        "type": "Point",
        "coordinates": [
          -96.7968063,
          32.7808418
        ]
      },
      "properties": {
        "xid": "Q7829719",
        "name": "Tower Petroleum Building",
        "dist": 463.73749802,
        "rate": 3,
        "wikidata": "Q7829719",
        "kinds": "architecture,skyscrapers,interesting_places"
      }
    },
    {
      "type": "Feature",
      "id": "11492712",
      "geometry": {
        "type": "Point",
        "coordinates": [
          -96.7991028,
          32.7804642
        ]
      },
      "properties": {
        "xid": "W450893343",
        "name": "Pegasus Plaza",
        "dist": 465.7048396,
        "rate": 3,
        "osm": "way/450893343",
        "wikidata": "Q7160584",
        "kinds": "urban_environment,gardens_and_parks,cultural,interesting_places"
      }
    },
    {
      "type": "Feature",
      "id": "16053101",
      "geometry": {
        "type": "Point",
        "coordinates": [
          -96.79245,
          32.7788696
        ]
      },
      "properties": {
        "xid": "Q107322018",
        "name": "Scottish Rite Cathedral",
        "dist": 490.26648055,
        "rate": 1,
        "wikidata": "Q107322018",
        "kinds": "religion,churches,interesting_places,other_churches"
      }
    },
    {
      "type": "Feature",
      "id": "15289308",
      "geometry": {
        "type": "Point",
        "coordinates": [
          -96.7980881,
          32.7810135
        ]
      },
      "properties": {
        "xid": "Q42298650",
        "name": "Empire Theater",
        "dist": 493.48768786,
        "rate": 1,
        "wikidata": "Q42298650",
        "kinds": "cinemas,cultural,theatres_and_entertainments,interesting_places"
      }
    },
    {
      "type": "Feature",
      "id": "10110388",
      "geometry": {
        "type": "Point",
        "coordinates": [
          -96.7989807,
          32.7808075
        ]
      },
      "properties": {
        "xid": "N356824340",
        "name": "Saint Jude Chapel",
        "dist": 496.09884401,
        "rate": 1,
        "osm": "node/356824340",
        "kinds": "religion,other_temples,interesting_places"
      }
    },
    {
      "type": "Feature",
      "id": "16067900",
      "geometry": {
        "type": "Point",
        "coordinates": [
          -96.7941971,
          32.7806015
        ]
      },
      "properties": {
        "xid": "Q7083825",
        "name": "Old Dallas Central Library",
        "dist": 508.66037625,
        "rate": 3,
        "wikidata": "Q7083825",
        "kinds": "historic_architecture,architecture,interesting_places,other_buildings_and_structures"
      }
    },
    {
      "type": "Feature",
      "id": "15155576",
      "geometry": {
        "type": "Point",
        "coordinates": [
          -96.7983017,
          32.7811241
        ]
      },
      "properties": {
        "xid": "Q7237562",
        "name": "Praetorian Building",
        "dist": 509.6635929,
        "rate": 3,
        "wikidata": "Q7237562",
        "kinds": "skyscrapers,architecture,interesting_places"
      }
    },
    {
      "type": "Feature",
      "id": "14471351",
      "geometry": {
        "type": "Point",
        "coordinates": [
          -96.7970734,
          32.7812767
        ]
      },
      "properties": {
        "xid": "Q8022994",
        "name": "Wilson Building",
        "dist": 511.73793472,
        "rate": 7,
        "wikidata": "Q8022994",
        "kinds": "historic_architecture,architecture,interesting_places,other_buildings_and_structures"
      }
    },
    {
      "type": "Feature",
      "id": "15838893",
      "geometry": {
        "type": "Point",
        "coordinates": [
          -96.7993927,
          32.7808609
        ]
      },
      "properties": {
        "xid": "Q6414903",
        "name": "Kirby Building",
        "dist": 517.14171885,
        "rate": 7,
        "wikidata": "Q6414903",
        "kinds": "architecture,skyscrapers,interesting_places"
      }
    },
    {
      "type": "Feature",
      "id": "14466587",
      "geometry": {
        "type": "Point",
        "coordinates": [
          -96.7938919,
          32.7805557
        ]
      },
      "properties": {
        "xid": "Q5677895",
        "name": "Harwood Historic District",
        "dist": 520.12687037,
        "rate": 2,
        "wikidata": "Q5677895",
        "kinds": "historic,historical_places,interesting_places,historic_districts"
      }
    },
    {
      "type": "Feature",
      "id": "10591089",
      "geometry": {
        "type": "Point",
        "coordinates": [
          -96.7982559,
          32.78125
        ]
      },
      "properties": {
        "xid": "N5844828385",
        "name": "Giant Eye",
        "dist": 522.44910477,
        "rate": 1,
        "osm": "node/5844828385",
        "kinds": "other,unclassified_objects,interesting_places,tourist_object"
      }
    },
    {
      "type": "Feature",
      "id": "10591082",
      "geometry": {
        "type": "Point",
        "coordinates": [
          -96.795433,
          32.7811928
        ]
      },
      "properties": {
        "xid": "W419525517",
        "name": "",
        "dist": 523.0302143,
        "rate": 0,
        "osm": "way/419525517",
        "kinds": "fountains,cultural,urban_environment,interesting_places"
      }
    },
    {
      "type": "Feature",
      "id": "16202305",
      "geometry": {
        "type": "Point",
        "coordinates": [
          -96.7934113,
          32.7803497
        ]
      },
      "properties": {
        "xid": "Q42298622",
        "name": "Childress Theater",
        "dist": 528.81372683,
        "rate": 1,
        "wikidata": "Q42298622",
        "kinds": "cinemas,cultural,theatres_and_entertainments,interesting_places"
      }
    },
    {
      "type": "Feature",
      "id": "11194697",
      "geometry": {
        "type": "Point",
        "coordinates": [
          -96.7921753,
          32.779232
        ]
      },
      "properties": {
        "xid": "W30898113",
        "name": "Dallas Scottish Rite Temple",
        "dist": 533.62760682,
        "rate": 7,
        "osm": "way/30898113",
        "wikidata": "Q5211405",
        "kinds": "religion,other_temples,interesting_places"
      }
    },
    {
      "type": "Feature",
      "id": "11615712",
      "geometry": {
        "type": "Point",
        "coordinates": [
          -96.8017502,
          32.7739792
        ]
      },
      "properties": {
        "xid": "R1479857",
        "name": "Kay Bailey Hutchinson Convention Center",
        "dist": 536.51466067,
        "rate": 3,
        "osm": "relation/1479857",
        "wikidata": "Q3012439",
        "kinds": "other,unclassified_objects,interesting_places,tourist_object"
      }
    },
    {
      "type": "Feature",
      "id": "7102549",
      "geometry": {
        "type": "Point",
        "coordinates": [
          -96.7983093,
          32.781414
        ]
      },
      "properties": {
        "xid": "W617241687",
        "name": "Eye",
        "dist": 540.94578886,
        "rate": 1,
        "osm": "way/617241687",
        "kinds": "cultural,urban_environment,interesting_places,installation"
      }
    },
    {
      "type": "Feature",
      "id": "14922802",
      "geometry": {
        "type": "Point",
        "coordinates": [
          -96.800499,
          32.7805481
        ]
      },
      "properties": {
        "xid": "Q5241846",
        "name": "Davis Building",
        "dist": 541.84361548,
        "rate": 7,
        "wikidata": "Q5241846",
        "kinds": "architecture,skyscrapers,interesting_places"
      }
    },
    {
      "type": "Feature",
      "id": "5273689",
      "geometry": {
        "type": "Point",
        "coordinates": [
          -96.7965012,
          32.7815323
        ]
      },
      "properties": {
        "xid": "W28015874",
        "name": "Comerica Bank",
        "dist": 541.58477422,
        "rate": 3,
        "osm": "way/28015874",
        "wikidata": "Q2743574",
        "kinds": "skyscrapers,architecture,interesting_places,banks,bank,tourist_facilities"
      }
    },
    {
      "type": "Feature",
      "id": "11342250",
      "geometry": {
        "type": "Point",
        "coordinates": [
          -96.7948303,
          32.781208
        ]
      },
      "properties": {
        "xid": "W168713822",
        "name": "Main Street Garden",
        "dist": 542.80310979,
        "rate": 3,
        "osm": "way/168713822",
        "wikidata": "Q6736113",
        "kinds": "urban_environment,gardens_and_parks,cultural,interesting_places"
      }
    },
    {
      "type": "Feature",
      "id": "10591059",
      "geometry": {
        "type": "Point",
        "coordinates": [
          -96.7941818,
          32.7721481
        ]
      },
      "properties": {
        "xid": "N1957484313",
        "name": "Art Hotel Gallery",
        "dist": 565.4301476,
        "rate": 1,
        "osm": "node/1957484313",
        "kinds": "cultural,urban_environment,interesting_places,installation"
      }
    },
    {
      "type": "Feature",
      "id": "14602824",
      "geometry": {
        "type": "Point",
        "coordinates": [
          -96.7979355,
          32.7817268
        ]
      },
      "properties": {
        "xid": "Q42298657",
        "name": "Washington Theatre",
        "dist": 568.44306888,
        "rate": 2,
        "wikidata": "Q42298657",
        "kinds": "architecture,historic_architecture,cinemas,cultural,theatres_and_entertainments,interesting_places,destroyed_objects"
      }
    },
    {
      "type": "Feature",
      "id": "15289310",
      "geometry": {
        "type": "Point",
        "coordinates": [
          -96.7978668,
          32.7817459
        ]
      },
      "properties": {
        "xid": "Q42298655",
        "name": "Palace Theatre",
        "dist": 569.52730637,
        "rate": 1,
        "wikidata": "Q42298655",
        "kinds": "architecture,historic_architecture,cinemas,cultural,theatres_and_entertainments,interesting_places,destroyed_objects"
      }
    },
    {
      "type": "Feature",
      "id": "14831707",
      "geometry": {
        "type": "Point",
        "coordinates": [
          -96.7990646,
          32.781498
        ]
      },
      "properties": {
        "xid": "Q42298647",
        "name": "Dallas Theatre",
        "dist": 570.21921349,
        "rate": 1,
        "wikidata": "Q42298647",
        "kinds": "architecture,historic_architecture,cinemas,cultural,theatres_and_entertainments,interesting_places,destroyed_objects"
      }
    },
    {
      "type": "Feature",
      "id": "15060258",
      "geometry": {
        "type": "Point",
        "coordinates": [
          -96.7991714,
          32.7814789
        ]
      },
      "properties": {
        "xid": "Q42298654",
        "name": "Mirror Theater",
        "dist": 571.8604958,
        "rate": 1,
        "wikidata": "Q42298654",
        "kinds": "architecture,historic_architecture,cinemas,cultural,theatres_and_entertainments,interesting_places,destroyed_objects"
      }
    },
    {
      "type": "Feature",
      "id": "15107260",
      "geometry": {
        "type": "Point",
        "coordinates": [
          -96.7973404,
          32.7818298
        ]
      },
      "properties": {
        "xid": "Q79331404",
        "name": "Theatre Row",
        "dist": 573.83887601,
        "rate": 1,
        "wikidata": "Q79331404",
        "kinds": "cultural,urban_environment,interesting_places,squares"
      }
    },
    {
      "type": "Feature",
      "id": "15517309",
      "geometry": {
        "type": "Point",
        "coordinates": [
          -96.7997589,
          32.7813568
        ]
      },
      "properties": {
        "xid": "Q42298652",
        "name": "Leo Theatre",
        "dist": 581.43738228,
        "rate": 1,
        "wikidata": "Q42298652",
        "kinds": "architecture,historic_architecture,cinemas,cultural,theatres_and_entertainments,interesting_places,destroyed_objects"
      }
    },
    {
      "type": "Feature",
      "id": "14602815",
      "geometry": {
        "type": "Point",
        "coordinates": [
          -96.7994461,
          32.7814789
        ]
      },
      "properties": {
        "xid": "Q42298605",
        "name": "Rialto Theatre",
        "dist": 581.3880609,
        "rate": 1,
        "wikidata": "Q42298605",
        "kinds": "architecture,historic_architecture,cinemas,cultural,theatres_and_entertainments,interesting_places,destroyed_objects"
      }
    },
    {
      "type": "Feature",
      "id": "15384955",
      "geometry": {
        "type": "Point",
        "coordinates": [
          -96.7953796,
          32.7817764
        ]
      },
      "properties": {
        "xid": "Q7809913",
        "name": "Titche-Goettinger Building",
        "dist": 586.39423494,
        "rate": 7,
        "wikidata": "Q7809913",
        "kinds": "historic_architecture,architecture,interesting_places,other_buildings_and_structures"
      }
    },
    {
      "type": "Feature",
      "id": "7137021",
      "geometry": {
        "type": "Point",
        "coordinates": [
          -96.8021927,
          32.7796402
        ]
      },
      "properties": {
        "xid": "W179915270",
        "name": "Belo Garden",
        "dist": 588.76438609,
        "rate": 2,
        "osm": "way/179915270",
        "wikidata": "Q4884468",
        "kinds": "urban_environment,gardens_and_parks,cultural,interesting_places"
      }
    },
    {
      "type": "Feature",
      "id": "14922765",
      "geometry": {
        "type": "Point",
        "coordinates": [
          -96.7937012,
          32.7813988
        ]
      },
      "properties": {
        "xid": "Q5211370",
        "name": "Dallas Municipal Building",
        "dist": 608.86734908,
        "rate": 7,
        "wikidata": "Q5211370",
        "kinds": "historic_architecture,architecture,interesting_places,other_buildings_and_structures"
      }
    },
    {
      "type": "Feature",
      "id": "14463589",
      "geometry": {
        "type": "Point",
        "coordinates": [
          -96.7990875,
          32.7818604
        ]
      },
      "properties": {
        "xid": "Q4551090",
        "name": "1600 Pacific Tower",
        "dist": 608.97177795,
        "rate": 3,
        "wikidata": "Q4551090",
        "kinds": "skyscrapers,architecture,interesting_places"
      }
    },
    {
      "type": "Feature",
      "id": "15155230",
      "geometry": {
        "type": "Point",
        "coordinates": [
          -96.8018036,
          32.7803993
        ]
      },
      "properties": {
        "xid": "Q7092849",
        "name": "One Main Place",
        "dist": 612.28319186,
        "rate": 7,
        "wikidata": "Q7092849",
        "kinds": "architecture,skyscrapers,interesting_places"
      }
    },
    {
      "type": "Feature",
      "id": "14831708",
      "geometry": {
        "type": "Point",
        "coordinates": [
          -96.8010941,
          32.7810516
        ]
      },
      "properties": {
        "xid": "Q42298648",
        "name": "Dixie Theatre",
        "dist": 620.30360938,
        "rate": 1,
        "wikidata": "Q42298648",
        "kinds": "architecture,historic_architecture,cinemas,cultural,theatres_and_entertainments,interesting_places,destroyed_objects"
      }
    },
    {
      "type": "Feature",
      "id": "14462061",
      "geometry": {
        "type": "Point",
        "coordinates": [
          -96.7966003,
          32.782299
        ]
      },
      "properties": {
        "xid": "Q3497929",
        "name": "1700 Pacific",
        "dist": 626.06885289,
        "rate": 3,
        "wikidata": "Q3497929",
        "kinds": "skyscrapers,architecture,interesting_places"
      }
    },
    {
      "type": "Feature",
      "id": "15973311",
      "geometry": {
        "type": "Point",
        "coordinates": [
          -96.7955246,
          32.7822456
        ]
      },
      "properties": {
        "xid": "Q42298646",
        "name": "Capri Theatre",
        "dist": 633.92872595,
        "rate": 1,
        "wikidata": "Q42298646",
        "kinds": "architecture,historic_architecture,cinemas,cultural,theatres_and_entertainments,interesting_places,destroyed_objects"
      }
    },
    {
      "type": "Feature",
      "id": "15517307",
      "geometry": {
        "type": "Point",
        "coordinates": [
          -96.7955475,
          32.7823219
        ]
      },
      "properties": {
        "xid": "Q42298606",
        "name": "Tower Theater",
        "dist": 641.81674998,
        "rate": 1,
        "wikidata": "Q42298606",
        "kinds": "cinemas,cultural,theatres_and_entertainments,interesting_places"
      }
    },
    {
      "type": "Feature",
      "id": "16074452",
      "geometry": {
        "type": "Point",
        "coordinates": [
          -96.8007965,
          32.7815018
        ]
      },
      "properties": {
        "xid": "Q11878340",
        "name": "Elm Place",
        "dist": 644.32728061,
        "rate": 7,
        "wikidata": "Q11878340",
        "kinds": "skyscrapers,architecture,accomodations,interesting_places,other_hotels"
      }
    },
    {
      "type": "Feature",
      "id": "15745567",
      "geometry": {
        "type": "Point",
        "coordinates": [
          -96.8011246,
          32.7813225
        ]
      },
      "properties": {
        "xid": "Q42298603",
        "name": "Fox Theater",
        "dist": 646.02744646,
        "rate": 1,
        "wikidata": "Q42298603",
        "kinds": "architecture,historic_architecture,cinemas,cultural,theatres_and_entertainments,interesting_places,destroyed_objects"
      }
    },
    {
      "type": "Feature",
      "id": "15060259",
      "geometry": {
        "type": "Point",
        "coordinates": [
          -96.8017426,
          32.7809181
        ]
      },
      "properties": {
        "xid": "Q42298656",
        "name": "Strand Theatre",
        "dist": 649.05895031,
        "rate": 1,
        "wikidata": "Q42298656",
        "kinds": "architecture,historic_architecture,cinemas,cultural,theatres_and_entertainments,interesting_places,destroyed_objects"
      }
    },
    {
      "type": "Feature",
      "id": "15143175",
      "geometry": {
        "type": "Point",
        "coordinates": [
          -96.7975006,
          32.7825012
        ]
      },
      "properties": {
        "xid": "Q868264",
        "name": "Roman Catholic Diocese of Dallas",
        "dist": 648.96916501,
        "rate": 3,
        "wikidata": "Q868264",
        "kinds": "religion,other_temples,interesting_places"
      }
    },
    {
      "type": "Feature",
      "id": "7137022",
      "geometry": {
        "type": "Point",
        "coordinates": [
          -96.7984009,
          32.7826271
        ]
      },
      "properties": {
        "xid": "W219799703",
        "name": "Thanks-Giving Square",
        "dist": 674.33980039,
        "rate": 3,
        "osm": "way/219799703",
        "wikidata": "Q3519574",
        "kinds": "urban_environment,gardens_and_parks,cultural,interesting_places"
      }
    },
    {
      "type": "Feature",
      "id": "15612154",
      "geometry": {
        "type": "Point",
        "coordinates": [
          -96.7952881,
          32.7826538
        ]
      },
      "properties": {
        "xid": "Q7122624",
        "name": "Pacific Place",
        "dist": 682.8798312,
        "rate": 2,
        "wikidata": "Q7122624",
        "kinds": "skyscrapers,architecture,interesting_places"
      }
    },
    {
      "type": "Feature",
      "id": "16057224",
      "geometry": {
        "type": "Point",
        "coordinates": [
          -96.802002,
          32.7812004
        ]
      },
      "properties": {
        "xid": "Q1515605",
        "name": "Renaissance Tower",
        "dist": 688.12770136,
        "rate": 3,
        "wikidata": "Q1515605",
        "kinds": "skyscrapers,architecture,interesting_places"
      }
    },
    {
      "type": "Feature",
      "id": "11711304",
      "geometry": {
        "type": "Point",
        "coordinates": [
          -96.8042679,
          32.7752724
        ]
      },
      "properties": {
        "xid": "W210814721",
        "name": "Omni Dallas Hotel",
        "dist": 699.60365849,
        "rate": 3,
        "osm": "way/210814721",
        "wikidata": "Q7090323",
        "kinds": "skyscrapers,architecture,accomodations,interesting_places,other_hotels"
      }
    },
    {
      "type": "Feature",
      "id": "11283533",
      "geometry": {
        "type": "Point",
        "coordinates": [
          -96.7949982,
          32.7827606
        ]
      },
      "properties": {
        "xid": "W179234383",
        "name": "Majestic Theatre",
        "dist": 701.25958627,
        "rate": 7,
        "osm": "way/179234383",
        "wikidata": "Q6737714",
        "kinds": "cultural,cinemas,theatres_and_entertainments,interesting_places"
      }
    },
    {
      "type": "Feature",
      "id": "11748668",
      "geometry": {
        "type": "Point",
        "coordinates": [
          -96.7982712,
          32.7829514
        ]
      },
      "properties": {
        "xid": "W654112871",
        "name": "Thanksgiving Chapel",
        "dist": 707.7741011,
        "rate": 3,
        "osm": "way/654112871",
        "wikidata": "Q2677763",
        "kinds": "skyscrapers,religion,architecture,other_temples,interesting_places"
      }
    },
    {
      "type": "Feature",
      "id": "7102548",
      "geometry": {
        "type": "Point",
        "coordinates": [
          -96.804657,
          32.776722
        ]
      },
      "properties": {
        "xid": "N3895171781",
        "name": "Gateway Stele",
        "dist": 718.73968984,
        "rate": 1,
        "osm": "node/3895171781",
        "kinds": "cultural,urban_environment,interesting_places,installation"
      }
    },
    {
      "type": "Feature",
      "id": "15289309",
      "geometry": {
        "type": "Point",
        "coordinates": [
          -96.8031921,
          32.7806053
        ]
      },
      "properties": {
        "xid": "Q42298653",
        "name": "Loews Downtown Theater",
        "dist": 727.56983102,
        "rate": 1,
        "wikidata": "Q42298653",
        "kinds": "cinemas,cultural,theatres_and_entertainments,interesting_places"
      }
    },
    {
      "type": "Feature",
      "id": "14831705",
      "geometry": {
        "type": "Point",
        "coordinates": [
          -96.7966614,
          32.7832108
        ]
      },
      "properties": {
        "xid": "Q42298604",
        "name": "Joy Theatre",
        "dist": 726.823483,
        "rate": 1,
        "wikidata": "Q42298604",
        "kinds": "architecture,historic_architecture,cinemas,cultural,theatres_and_entertainments,interesting_places,destroyed_objects"
      }
    },
    {
      "type": "Feature",
      "id": "15612591",
      "geometry": {
        "type": "Point",
        "coordinates": [
          -96.7980194,
          32.7832108
        ]
      },
      "properties": {
        "xid": "Q7314394",
        "name": "Republic Center",
        "dist": 732.4786982,
        "rate": 7,
        "wikidata": "Q7314394",
        "kinds": "architecture,skyscrapers,interesting_places"
      }
    },
    {
      "type": "Feature",
      "id": "14461225",
      "geometry": {
        "type": "Point",
        "coordinates": [
          -96.7991028,
          32.7831001
        ]
      },
      "properties": {
        "xid": "Q3054119",
        "name": "Energy Plaza",
        "dist": 740.65435184,
        "rate": 3,
        "wikidata": "Q3054119",
        "kinds": "skyscrapers,architecture,interesting_places"
      }
    },
    {
      "type": "Feature",
      "id": "7102546",
      "geometry": {
        "type": "Point",
        "coordinates": [
          -96.8050079,
          32.7764854
        ]
      },
      "properties": {
        "xid": "N3895171783",
        "name": "Journey to Sirius",
        "dist": 751.55896963,
        "rate": 1,
        "osm": "node/3895171783",
        "kinds": "cultural,urban_environment,interesting_places,installation"
      }
    },
    {
      "type": "Feature",
      "id": "16062975",
      "geometry": {
        "type": "Point",
        "coordinates": [
          -96.7954025,
          32.7832985
        ]
      },
      "properties": {
        "xid": "Q4811012",
        "name": "Aston Park, Dallas",
        "dist": 750.79905708,
        "rate": 3,
        "wikidata": "Q4811012",
        "kinds": "gardens_and_parks,cultural,urban_environment,interesting_places"
      }
    },
    {
      "type": "Feature",
      "id": "7102547",
      "geometry": {
        "type": "Point",
        "coordinates": [
          -96.8050385,
          32.7768097
        ]
      },
      "properties": {
        "xid": "N3895171782",
        "name": "Harrow",
        "dist": 754.5905874,
        "rate": 1,
        "osm": "node/3895171782",
        "kinds": "cultural,urban_environment,interesting_places,installation"
      }
    },
    {
      "type": "Feature",
      "id": "15640529",
      "geometry": {
        "type": "Point",
        "coordinates": [
          -96.8041992,
          32.7797012
        ]
      },
      "properties": {
        "xid": "Q18157738",
        "name": "Sanger Harris department store building",
        "dist": 754.90736908,
        "rate": 7,
        "wikidata": "Q18157738",
        "kinds": "historic_architecture,architecture,interesting_places,other_buildings_and_structures"
      }
    },
    {
      "type": "Feature",
      "id": "14469097",
      "geometry": {
        "type": "Point",
        "coordinates": [
          -96.7962036,
          32.7835007
        ]
      },
      "properties": {
        "xid": "Q7122630",
        "name": "Pacific Plaza Park",
        "dist": 761.67905848,
        "rate": 3,
        "wikidata": "Q7122630",
        "kinds": "gardens_and_parks,cultural,urban_environment,interesting_places"
      }
    },
    {
      "type": "Feature",
      "id": "11687174",
      "geometry": {
        "type": "Point",
        "coordinates": [
          -96.7994537,
          32.7699089
        ]
      },
      "properties": {
        "xid": "W707363757",
        "name": "Alamo Drafthouse - Cedars",
        "dist": 784.09224607,
        "rate": 1,
        "osm": "way/707363757",
        "wikidata": "Q42298388",
        "kinds": "cultural,cinemas,theatres_and_entertainments,interesting_places"
      }
    },
    {
      "type": "Feature",
      "id": "16062612",
      "geometry": {
        "type": "Point",
        "coordinates": [
          -96.7992935,
          32.7837906
        ]
      },
      "properties": {
        "xid": "Q4639810",
        "name": "505 North Ervay",
        "dist": 819.33727107,
        "rate": 2,
        "wikidata": "Q4639810",
        "kinds": "skyscrapers,architecture,interesting_places"
      }
    },
    {
      "type": "Feature",
      "id": "14477762",
      "geometry": {
        "type": "Point",
        "coordinates": [
          -96.7969971,
          32.7840996
        ]
      },
      "properties": {
        "xid": "Q14711218",
        "name": "Patriot Tower",
        "dist": 824.6351371,
        "rate": 3,
        "wikidata": "Q14711218",
        "kinds": "skyscrapers,architecture,interesting_places"
      }
    },
    {
      "type": "Feature",
      "id": "16067440",
      "geometry": {
        "type": "Point",
        "coordinates": [
          -96.7997208,
          32.7838898
        ]
      },
      "properties": {
        "xid": "Q6915310",
        "name": "Mosaic Dallas",
        "dist": 841.18078146,
        "rate": 7,
        "wikidata": "Q6915310",
        "kinds": "historic_architecture,architecture,interesting_places,other_buildings_and_structures"
      }
    },
    {
      "type": "Feature",
      "id": "14466581",
      "geometry": {
        "type": "Point",
        "coordinates": [
          -96.7977371,
          32.7842216
        ]
      },
      "properties": {
        "xid": "Q5674423",
        "name": "Hartford Building",
        "dist": 841.097099,
        "rate": 3,
        "wikidata": "Q5674423",
        "kinds": "skyscrapers,architecture,interesting_places"
      }
    },
    {
      "type": "Feature",
      "id": "14691766",
      "geometry": {
        "type": "Point",
        "coordinates": [
          -96.7907944,
          32.7826576
        ]
      },
      "properties": {
        "xid": "Q4546163",
        "name": "100 North Central Expressway",
        "dist": 882.13475091,
        "rate": 2,
        "wikidata": "Q4546163",
        "kinds": "skyscrapers,architecture,interesting_places"
      }
    },
    {
      "type": "Feature",
      "id": "11342248",
      "geometry": {
        "type": "Point",
        "coordinates": [
          -96.806015,
          32.7792778
        ]
      },
      "properties": {
        "xid": "N4271334611",
        "name": "West End Historic District",
        "dist": 894.13915251,
        "rate": 7,
        "osm": "node/4271334611",
        "wikidata": "Q7985089",
        "kinds": "historic,historical_places,interesting_places,historic_districts"
      }
    },
    {
      "type": "Feature",
      "id": "5273687",
      "geometry": {
        "type": "Point",
        "coordinates": [
          -96.8052597,
          32.7807045
        ]
      },
      "properties": {
        "xid": "W28545286",
        "name": "Antioch Church",
        "dist": 895.44590152,
        "rate": 1,
        "osm": "way/28545286",
        "kinds": "religion,churches,interesting_places,eastern_orthodox_churches"
      }
    },
    {
      "type": "Feature",
      "id": "5273774",
      "geometry": {
        "type": "Point",
        "coordinates": [
          -96.7989273,
          32.784565
        ]
      },
      "properties": {
        "xid": "W471658482",
        "name": "",
        "dist": 894.91350572,
        "rate": 0,
        "osm": "way/471658482",
        "kinds": "religion,other_temples,interesting_places"
      }
    },
    {
      "type": "Feature",
      "id": "10591066",
      "geometry": {
        "type": "Point",
        "coordinates": [
          -96.8066254,
          32.77631
        ]
      },
      "properties": {
        "xid": "W610133681",
        "name": "",
        "dist": 903.78004521,
        "rate": 0,
        "osm": "way/610133681",
        "kinds": "fountains,cultural,urban_environment,interesting_places"
      }
    },
    {
      "type": "Feature",
      "id": "16202306",
      "geometry": {
        "type": "Point",
        "coordinates": [
          -96.7891006,
          32.7813873
        ]
      },
      "properties": {
        "xid": "Q42298623",
        "name": "Grand Central Theatre",
        "dist": 905.41406503,
        "rate": 1,
        "wikidata": "Q42298623",
        "kinds": "cinemas,cultural,theatres_and_entertainments,interesting_places"
      }
    },
    {
      "type": "Feature",
      "id": "10591072",
      "geometry": {
        "type": "Point",
        "coordinates": [
          -96.8064346,
          32.778717
        ]
      },
      "properties": {
        "xid": "W450893338",
        "name": "John F Kennedy Memorial",
        "dist": 913.61759641,
        "rate": 3,
        "osm": "way/450893338",
        "wikidata": "Q6233329",
        "kinds": "historic,monuments_and_memorials,urban_environment,cultural,interesting_places,sculptures,monuments"
      }
    },
    {
      "type": "Feature",
      "id": "11803941",
      "geometry": {
        "type": "Point",
        "coordinates": [
          -96.7996216,
          32.7846107
        ]
      },
      "properties": {
        "xid": "W179269702",
        "name": "First Baptist Church Sanctuary",
        "dist": 915.06333403,
        "rate": 7,
        "osm": "way/179269702",
        "wikidata": "Q5452374",
        "kinds": "religion,churches,interesting_places,other_churches"
      }
    },
    {
      "type": "Feature",
      "id": "14831709",
      "geometry": {
        "type": "Point",
        "coordinates": [
          -96.7909622,
          32.7831917
        ]
      },
      "properties": {
        "xid": "Q42298651",
        "name": "Harlem Theatre",
        "dist": 918.05960113,
        "rate": 1,
        "wikidata": "Q42298651",
        "kinds": "architecture,historic_architecture,cinemas,cultural,theatres_and_entertainments,interesting_places,destroyed_objects"
      }
    },
    {
      "type": "Feature",
      "id": "14688542",
      "geometry": {
        "type": "Point",
        "coordinates": [
          -96.8002472,
          32.7845192
        ]
      },
      "properties": {
        "xid": "Q2404290",
        "name": "Ross Tower",
        "dist": 923.0609699,
        "rate": 3,
        "wikidata": "Q2404290",
        "kinds": "skyscrapers,architecture,interesting_places"
      }
    },
    {
      "type": "Feature",
      "id": "15152784",
      "geometry": {
        "type": "Point",
        "coordinates": [
          -96.7969971,
          32.7849998
        ]
      },
      "properties": {
        "xid": "Q5677890",
        "name": "Harwood Center",
        "dist": 924.44562032,
        "rate": 3,
        "wikidata": "Q5677890",
        "kinds": "skyscrapers,architecture,interesting_places"
      }
    },
    {
      "type": "Feature",
      "id": "10591106",
      "geometry": {
        "type": "Point",
        "coordinates": [
          -96.7878113,
          32.772892
        ]
      },
      "properties": {
        "xid": "W471980688",
        "name": "Worth Hotel",
        "dist": 956.02569777,
        "rate": 1,
        "osm": "way/471980688",
        "kinds": "architecture,historic_architecture,interesting_places,other_buildings_and_structures"
      }
    },
    {
      "type": "Feature",
      "id": "14921967",
      "geometry": {
        "type": "Point",
        "coordinates": [
          -96.7963715,
          32.7852554
        ]
      },
      "properties": {
        "xid": "Q4980431",
        "name": "Bryan Tower",
        "dist": 954.56396521,
        "rate": 3,
        "wikidata": "Q4980431",
        "kinds": "skyscrapers,architecture,interesting_places"
      }
    },
    {
      "type": "Feature",
      "id": "11803942",
      "geometry": {
        "type": "Point",
        "coordinates": [
          -96.7948303,
          32.7850876
        ]
      },
      "properties": {
        "xid": "W28781023",
        "name": "sheraton dallas hotel",
        "dist": 955.6311129,
        "rate": 3,
        "osm": "way/28781023",
        "wikidata": "Q7494676",
        "kinds": "skyscrapers,architecture,accomodations,interesting_places,other_hotels"
      }
    },
    {
      "type": "Feature",
      "id": "10591055",
      "geometry": {
        "type": "Point",
        "coordinates": [
          -96.8067245,
          32.779644
        ]
      },
      "properties": {
        "xid": "N5742525610",
        "name": "Log Cabin Pioneers of Dallas County",
        "dist": 970.12496449,
        "rate": 1,
        "osm": "node/5742525610",
        "kinds": "other,unclassified_objects,interesting_places,historic_object"
      }
    },
    {
      "type": "Feature",
      "id": "7702110",
      "geometry": {
        "type": "Point",
        "coordinates": [
          -96.7997742,
          32.7851067
        ]
      },
      "properties": {
        "xid": "W179269704",
        "name": "",
        "dist": 972.15986587,
        "rate": 0,
        "osm": "way/179269704",
        "kinds": "religion,other_temples,interesting_places"
      }
    },
    {
      "type": "Feature",
      "id": "14922764",
      "geometry": {
        "type": "Point",
        "coordinates": [
          -96.807579,
          32.7785606
        ]
      },
      "properties": {
        "xid": "Q5211300",
        "name": "Dallas County Courthouse",
        "dist": 1014.36922557,
        "rate": 7,
        "wikidata": "Q5211300",
        "kinds": "museums,cultural,interesting_places,other_museums"
      }
    },
    {
      "type": "Feature",
      "id": "15381838",
      "geometry": {
        "type": "Point",
        "coordinates": [
          -96.7982025,
          32.7858009
        ]
      },
      "properties": {
        "xid": "Q6335690",
        "name": "717 Harwood",
        "dist": 1019.50898886,
        "rate": 3,
        "wikidata": "Q6335690",
        "kinds": "skyscrapers,architecture,interesting_places"
      }
    },
    {
      "type": "Feature",
      "id": "15831509",
      "geometry": {
        "type": "Point",
        "coordinates": [
          -96.802597,
          32.7846947
        ]
      },
      "properties": {
        "xid": "Q2462521",
        "name": "Fountain Place",
        "dist": 1033.99113026,
        "rate": 3,
        "wikidata": "Q2462521",
        "kinds": "skyscrapers,architecture,interesting_places"
      }
    },
    {
      "type": "Feature",
      "id": "10591069",
      "geometry": {
        "type": "Point",
        "coordinates": [
          -96.8079147,
          32.7784424
        ]
      },
      "properties": {
        "xid": "W610131552",
        "name": "",
        "dist": 1042.38358536,
        "rate": 0,
        "osm": "way/610131552",
        "kinds": "fountains,cultural,urban_environment,interesting_places"
      }
    },
    {
      "type": "Feature",
      "id": "11711303",
      "geometry": {
        "type": "Point",
        "coordinates": [
          -96.8081665,
          32.7760506
        ]
      },
      "properties": {
        "xid": "N7020820218",
        "name": "Union Station",
        "dist": 1049.28554821,
        "rate": 7,
        "osm": "node/7020820218",
        "wikidata": "Q5371609",
        "kinds": "railway_stations,industrial_facilities,interesting_places"
      }
    },
    {
      "type": "Feature",
      "id": "10591070",
      "geometry": {
        "type": "Point",
        "coordinates": [
          -96.8079987,
          32.7786064
        ]
      },
      "properties": {
        "xid": "W610131553",
        "name": "George Dealey Statue",
        "dist": 1053.89059823,
        "rate": 1,
        "osm": "way/610131553",
        "kinds": "cultural,urban_environment,interesting_places,sculptures"
      }
    },
    {
      "type": "Feature",
      "id": "11711305",
      "geometry": {
        "type": "Point",
        "coordinates": [
          -96.8083725,
          32.7760086
        ]
      },
      "properties": {
        "xid": "N5818005704",
        "name": "Dallas Union Station",
        "dist": 1069.39442645,
        "rate": 7,
        "osm": "node/5818005704",
        "wikidata": "Q5371609",
        "kinds": "railway_stations,industrial_facilities,interesting_places"
      }
    },
    {
      "type": "Feature",
      "id": "11651816",
      "geometry": {
        "type": "Point",
        "coordinates": [
          -96.8076324,
          32.7801933
        ]
      },
      "properties": {
        "xid": "N4502540392",
        "name": "Dallas Holocaust Museum",
        "dist": 1071.3000416,
        "rate": 3,
        "osm": "node/4502540392",
        "wikidata": "Q5211347",
        "kinds": "cultural,museums,interesting_places,other_museums"
      }
    },
    {
      "type": "Feature",
      "id": "11249896",
      "geometry": {
        "type": "Point",
        "coordinates": [
          -96.8052368,
          32.7833519
        ]
      },
      "properties": {
        "xid": "W28182794",
        "name": "Dallas World Aquarium",
        "dist": 1071.20400007,
        "rate": 3,
        "osm": "way/28182794",
        "wikidata": "Q5211449",
        "kinds": "aquariums,urban_environment,gardens_and_parks,cultural,museums,interesting_places,zoos"
      }
    },
    {
      "type": "Feature",
      "id": "10591068",
      "geometry": {
        "type": "Point",
        "coordinates": [
          -96.8081284,
          32.7791634
        ]
      },
      "properties": {
        "xid": "W610131551",
        "name": "",
        "dist": 1079.96911516,
        "rate": 0,
        "osm": "way/610131551",
        "kinds": "fountains,cultural,urban_environment,interesting_places"
      }
    },
    {
      "type": "Feature",
      "id": "7898995",
      "geometry": {
        "type": "Point",
        "coordinates": [
          -96.7992249,
          32.786232
        ]
      },
      "properties": {
        "xid": "W471658475",
        "name": "First United Methodist Church of Dallas",
        "dist": 1081.63516607,
        "rate": 2,
        "osm": "way/471658475",
        "wikidata": "Q105320447",
        "kinds": "religion,churches,interesting_places,other_churches"
      }
    },
    {
      "type": "Feature",
      "id": "14602828",
      "geometry": {
        "type": "Point",
        "coordinates": [
          -96.7878647,
          32.7704391
        ]
      },
      "properties": {
        "xid": "Q42298721",
        "name": "Ervay Theater",
        "dist": 1098.45187138,
        "rate": 1,
        "wikidata": "Q42298721",
        "kinds": "cinemas,cultural,theatres_and_entertainments,interesting_places"
      }
    },
    {
      "type": "Feature",
      "id": "16069141",
      "geometry": {
        "type": "Point",
        "coordinates": [
          -96.7953262,
          32.7667694
        ]
      },
      "properties": {
        "xid": "Q7571085",
        "name": "Southside on Lamar",
        "dist": 1108.4368104,
        "rate": 2,
        "wikidata": "Q7571085",
        "kinds": "skyscrapers,architecture,interesting_places"
      }
    },
    {
      "type": "Feature",
      "id": "14687140",
      "geometry": {
        "type": "Point",
        "coordinates": [
          -96.8083344,
          32.7797241
        ]
      },
      "properties": {
        "xid": "Q1753220",
        "name": "Texas School Book Depository",
        "dist": 1115.70416221,
        "rate": 7,
        "wikidata": "Q1753220",
        "kinds": "historic_architecture,architecture,interesting_places,other_buildings_and_structures"
      }
    },
    {
      "type": "Feature",
      "id": "6978851",
      "geometry": {
        "type": "Point",
        "coordinates": [
          -96.8086624,
          32.7787285
        ]
      },
      "properties": {
        "xid": "W138670473",
        "name": "Dealey Plaza",
        "dist": 1117.25205112,
        "rate": 7,
        "osm": "way/138670473",
        "wikidata": "Q1181004",
        "kinds": "historic,historical_places,interesting_places,historic_districts"
      }
    },
    {
      "type": "Feature",
      "id": "11803937",
      "geometry": {
        "type": "Point",
        "coordinates": [
          -96.8085098,
          32.7739372
        ]
      },
      "properties": {
        "xid": "W29191347",
        "name": "Reunion Park",
        "dist": 1121.20905677,
        "rate": 2,
        "osm": "way/29191347",
        "wikidata": "Q49549515",
        "kinds": "urban_environment,gardens_and_parks,cultural,interesting_places"
      }
    },
    {
      "type": "Feature",
      "id": "11282361",
      "geometry": {
        "type": "Point",
        "coordinates": [
          -96.8084412,
          32.7797089
        ]
      },
      "properties": {
        "xid": "N368164983",
        "name": "The Sixth Floor Museum at Dealey Plaza",
        "dist": 1124.80738055,
        "rate": 3,
        "osm": "node/368164983",
        "wikidata": "Q3498048",
        "kinds": "cultural,museums,interesting_places,other_museums"
      }
    },
    {
      "type": "Feature",
      "id": "11619589",
      "geometry": {
        "type": "Point",
        "coordinates": [
          -96.8089447,
          32.7753372
        ]
      },
      "properties": {
        "xid": "N600482843",
        "name": "Reunion Tower",
        "dist": 1129.74421144,
        "rate": 3,
        "osm": "node/600482843",
        "wikidata": "Q1248619",
        "kinds": "towers,architecture,interesting_places,observation_towers"
      }
    },
    {
      "type": "Feature",
      "id": "7363498",
      "geometry": {
        "type": "Point",
        "coordinates": [
          -96.8087692,
          32.7790909
        ]
      },
      "properties": {
        "xid": "N5778593747",
        "name": "JFK Assassination Site",
        "dist": 1135.80162022,
        "rate": 1,
        "osm": "node/5778593747",
        "kinds": "historic,monuments_and_memorials,interesting_places,monuments"
      }
    },
    {
      "type": "Feature",
      "id": "5039438",
      "geometry": {
        "type": "Point",
        "coordinates": [
          -96.788887,
          32.7690201
        ]
      },
      "properties": {
        "xid": "N356822728",
        "name": "Wayside Missionary Baptist Church",
        "dist": 1137.81400362,
        "rate": 1,
        "osm": "node/356822728",
        "kinds": "religion,other_temples,interesting_places"
      }
    },
    {
      "type": "Feature",
      "id": "15140543",
      "geometry": {
        "type": "Point",
        "coordinates": [
          -96.7994995,
          32.7866974
        ]
      },
      "properties": {
        "xid": "Q107330483",
        "name": "First United Methodist Church",
        "dist": 1137.13700886,
        "rate": 1,
        "wikidata": "Q107330483",
        "kinds": "religion,churches,interesting_places,other_churches"
      }
    },
    {
      "type": "Feature",
      "id": "11803943",
      "geometry": {
        "type": "Point",
        "coordinates": [
          -96.7956238,
          32.7868652
        ]
      },
      "properties": {
        "xid": "W450904414",
        "name": "dallas marriott downtown",
        "dist": 1138.50366083,
        "rate": 3,
        "osm": "way/450904414",
        "wikidata": "Q7203718",
        "kinds": "skyscrapers,architecture,accomodations,interesting_places,other_hotels"
      }
    },
    {
      "type": "Feature",
      "id": "5039554",
      "geometry": {
        "type": "Point",
        "coordinates": [
          -96.7880173,
          32.7693672
        ]
      },
      "properties": {
        "xid": "W465306360",
        "name": "",
        "dist": 1166.96465335,
        "rate": 0,
        "osm": "way/465306360",
        "kinds": "religion,other_temples,interesting_places"
      }
    },
    {
      "type": "Feature",
      "id": "5273683",
      "geometry": {
        "type": "Point",
        "coordinates": [
          -96.8094711,
          32.7758026
        ]
      },
      "properties": {
        "xid": "W610136503",
        "name": "Hyatt Regency Dallas",
        "dist": 1173.77952043,
        "rate": 3,
        "osm": "way/610136503",
        "wikidata": "Q5952881",
        "kinds": "skyscrapers,architecture,accomodations,interesting_places,other_hotels"
      }
    },
    {
      "type": "Feature",
      "id": "10591541",
      "geometry": {
        "type": "Point",
        "coordinates": [
          -96.7999191,
          32.7870712
        ]
      },
      "properties": {
        "xid": "N7427789109",
        "name": "",
        "dist": 1186.52722486,
        "rate": 0,
        "osm": "node/7427789109",
        "kinds": "cultural,urban_environment,interesting_places,sculptures"
      }
    },
    {
      "type": "Feature",
      "id": "10591540",
      "geometry": {
        "type": "Point",
        "coordinates": [
          -96.8004379,
          32.7869644
        ]
      },
      "properties": {
        "xid": "N7427789112",
        "name": "",
        "dist": 1187.206064,
        "rate": 0,
        "osm": "node/7427789112",
        "kinds": "cultural,urban_environment,interesting_places,sculptures"
      }
    },
    {
      "type": "Feature",
      "id": "15149817",
      "geometry": {
        "type": "Point",
        "coordinates": [
          -96.7975998,
          32.7874985
        ]
      },
      "properties": {
        "xid": "Q4630850",
        "name": "2100 Ross Avenue",
        "dist": 1203.06395204,
        "rate": 3,
        "wikidata": "Q4630850",
        "kinds": "skyscrapers,architecture,interesting_places"
      }
    },
    {
      "type": "Feature",
      "id": "15600112",
      "geometry": {
        "type": "Point",
        "coordinates": [
          -96.799202,
          32.7874985
        ]
      },
      "properties": {
        "xid": "Q977470",
        "name": "Trammell Crow Center",
        "dist": 1219.43463261,
        "rate": 3,
        "wikidata": "Q977470",
        "kinds": "skyscrapers,architecture,interesting_places"
      }
    },
    {
      "type": "Feature",
      "id": "15599386",
      "geometry": {
        "type": "Point",
        "coordinates": [
          -96.7966003,
          32.7877998
        ]
      },
      "properties": {
        "xid": "Q579403",
        "name": "Chase Tower",
        "dist": 1235.50131423,
        "rate": 3,
        "wikidata": "Q579403",
        "kinds": "skyscrapers,architecture,interesting_places"
      }
    },
    {
      "type": "Feature",
      "id": "14467703",
      "geometry": {
        "type": "Point",
        "coordinates": [
          -96.7871017,
          32.7841988
        ]
      },
      "properties": {
        "xid": "Q6422479",
        "name": "Grand Lodge of the Colored Knights of Pythias",
        "dist": 1247.61271058,
        "rate": 7,
        "wikidata": "Q6422479",
        "kinds": "historic_architecture,architecture,interesting_places,other_buildings_and_structures"
      }
    },
    {
      "type": "Feature",
      "id": "14602816",
      "geometry": {
        "type": "Point",
        "coordinates": [
          -96.807869,
          32.7831688
        ]
      },
      "properties": {
        "xid": "Q42298609",
        "name": "West End Cinema 10",
        "dist": 1248.83630974,
        "rate": 2,
        "wikidata": "Q42298609",
        "kinds": "cinemas,cultural,theatres_and_entertainments,interesting_places"
      }
    },
    {
      "type": "Feature",
      "id": "7144483",
      "geometry": {
        "type": "Point",
        "coordinates": [
          -96.8004837,
          32.7875214
        ]
      },
      "properties": {
        "xid": "N6357089756",
        "name": "",
        "dist": 1247.89957812,
        "rate": 0,
        "osm": "node/6357089756",
        "kinds": "fountains,cultural,urban_environment,interesting_places"
      }
    },
    {
      "type": "Feature",
      "id": "7197564",
      "geometry": {
        "type": "Point",
        "coordinates": [
          -96.787941,
          32.7851105
        ]
      },
      "properties": {
        "xid": "N5142172384",
        "name": "The Traveling Man - Waiting on a Train",
        "dist": 1263.49069774,
        "rate": 1,
        "osm": "node/5142172384",
        "kinds": "cultural,urban_environment,interesting_places,sculptures"
      }
    },
    {
      "type": "Feature",
      "id": "7057303",
      "geometry": {
        "type": "Point",
        "coordinates": [
          -96.7996368,
          32.7879105
        ]
      },
      "properties": {
        "xid": "W450893357",
        "name": "Trammell & Margaret Crow Collection of Asian Art",
        "dist": 1271.64556841,
        "rate": 3,
        "osm": "way/450893357",
        "wikidata": "Q7833157",
        "kinds": "cultural,museums,interesting_places,art_galleries"
      }
    },
    {
      "type": "Feature",
      "id": "14504387",
      "geometry": {
        "type": "Point",
        "coordinates": [
          -96.7985306,
          32.7881927
        ]
      },
      "properties": {
        "xid": "Q24260757",
        "name": "Alfred Horatio Belo House",
        "dist": 1286.8220728,
        "rate": 7,
        "wikidata": "Q24260757",
        "kinds": "historic_architecture,architecture,interesting_places,other_buildings_and_structures"
      }
    },
    {
      "type": "Feature",
      "id": "7197565",
      "geometry": {
        "type": "Point",
        "coordinates": [
          -96.7864761,
          32.7842674
        ]
      },
      "properties": {
        "xid": "N5142172385",
        "name": "The Traveling Man - Awakening",
        "dist": 1296.77134671,
        "rate": 1,
        "osm": "node/5142172385",
        "kinds": "cultural,urban_environment,interesting_places,sculptures"
      }
    },
    {
      "type": "Feature",
      "id": "15368552",
      "geometry": {
        "type": "Point",
        "coordinates": [
          -96.7977219,
          32.7883377
        ]
      },
      "properties": {
        "xid": "Q107322029",
        "name": "The Cathedral Shrine of the Virgin of Guadalupe",
        "dist": 1296.49742926,
        "rate": 1,
        "wikidata": "Q107322029",
        "kinds": "religion,churches,interesting_places,other_churches"
      }
    },
    {
      "type": "Feature",
      "id": "11223616",
      "geometry": {
        "type": "Point",
        "coordinates": [
          -96.8013382,
          32.7878304
        ]
      },
      "properties": {
        "xid": "R6942581",
        "name": "Dallas Museum of Art",
        "dist": 1303.70715836,
        "rate": 3,
        "osm": "relation/6942581",
        "wikidata": "Q745866",
        "kinds": "cultural,museums,interesting_places,art_galleries"
      }
    },
    {
      "type": "Feature",
      "id": "11494853",
      "geometry": {
        "type": "Point",
        "coordinates": [
          -96.7993469,
          32.7883263
        ]
      },
      "properties": {
        "xid": "N4400006121",
        "name": "Arts District",
        "dist": 1311.92948884,
        "rate": 3,
        "osm": "node/4400006121",
        "wikidata": "Q2865867",
        "kinds": "urban_environment,cultural,interesting_places,squares"
      }
    },
    {
      "type": "Feature",
      "id": "11223617",
      "geometry": {
        "type": "Point",
        "coordinates": [
          -96.800148,
          32.7882385
        ]
      },
      "properties": {
        "xid": "W31265439",
        "name": "Nasher Sculpture Center",
        "dist": 1317.19796784,
        "rate": 3,
        "osm": "way/31265439",
        "wikidata": "Q921055",
        "kinds": "cultural,museums,interesting_places,art_galleries"
      }
    },
    {
      "type": "Feature",
      "id": "7197566",
      "geometry": {
        "type": "Point",
        "coordinates": [
          -96.7884064,
          32.7861748
        ]
      },
      "properties": {
        "xid": "N5142172383",
        "name": "The Traveling Man - Walking Tall",
        "dist": 1326.00005085,
        "rate": 1,
        "osm": "node/5142172383",
        "kinds": "cultural,urban_environment,interesting_places,sculptures"
      }
    },
    {
      "type": "Feature",
      "id": "11509163",
      "geometry": {
        "type": "Point",
        "coordinates": [
          -96.7978668,
          32.7887993
        ]
      },
      "properties": {
        "xid": "W31265522",
        "name": "Cathedral Santuario de Guadalupe",
        "dist": 1348.20956604,
        "rate": 3,
        "osm": "way/31265522",
        "wikidata": "Q1432607",
        "kinds": "religion,cathedrals,churches,interesting_places,catholic_churches"
      }
    },
    {
      "type": "Feature",
      "id": "4952716",
      "geometry": {
        "type": "Point",
        "coordinates": [
          -96.8083344,
          32.7845726
        ]
      },
      "properties": {
        "xid": "N368164978",
        "name": "American Museum of the Miniature Arts",
        "dist": 1378.1931016,
        "rate": 1,
        "osm": "node/368164978",
        "kinds": "cultural,museums,interesting_places,other_museums"
      }
    },
    {
      "type": "Feature",
      "id": "15553320",
      "geometry": {
        "type": "Point",
        "coordinates": [
          -96.8088913,
          32.7692947
        ]
      },
      "properties": {
        "xid": "Q65794805",
        "name": "Houston Street Viaduct",
        "dist": 1382.48889266,
        "rate": 7,
        "wikidata": "Q65794805",
        "kinds": "bridges,architecture,interesting_places,viaducts"
      }
    },
    {
      "type": "Feature",
      "id": "16202302",
      "geometry": {
        "type": "Point",
        "coordinates": [
          -96.7989349,
          32.7889938
        ]
      },
      "properties": {
        "xid": "Q42298590",
        "name": "Kaufman Pike Drive-In",
        "dist": 1379.33806755,
        "rate": 1,
        "wikidata": "Q42298590",
        "kinds": "architecture,historic_architecture,cinemas,cultural,theatres_and_entertainments,interesting_places,destroyed_objects"
      }
    },
    {
      "type": "Feature",
      "id": "15140517",
      "geometry": {
        "type": "Point",
        "coordinates": [
          -96.8011627,
          32.7886467
        ]
      },
      "properties": {
        "xid": "Q107322026",
        "name": "Dallas Museum of Art, Eagle Family Plaza",
        "dist": 1385.20331891,
        "rate": 1,
        "wikidata": "Q107322026",
        "kinds": "museums,cultural,interesting_places,art_galleries"
      }
    },
    {
      "type": "Feature",
      "id": "10591533",
      "geometry": {
        "type": "Point",
        "coordinates": [
          -96.808609,
          32.7845726
        ]
      },
      "properties": {
        "xid": "N368164299",
        "name": "Waples-Platter Buildings",
        "dist": 1398.3573546,
        "rate": 1,
        "osm": "node/368164299",
        "kinds": "other,unclassified_objects,interesting_places,historic_object"
      }
    },
    {
      "type": "Feature",
      "id": "11215637",
      "geometry": {
        "type": "Point",
        "coordinates": [
          -96.8008728,
          32.7888451
        ]
      },
      "properties": {
        "xid": "W31265447",
        "name": "Nasher Sculpture Garden",
        "dist": 1399.23660843,
        "rate": 3,
        "osm": "way/31265447",
        "wikidata": "Q921055",
        "kinds": "cultural,museums,interesting_places,art_galleries"
      }
    },
    {
      "type": "Feature",
      "id": "10591531",
      "geometry": {
        "type": "Point",
        "coordinates": [
          -96.8060684,
          32.7868843
        ]
      },
      "properties": {
        "xid": "W783648386",
        "name": "The Hoglund Foundation Theater",
        "dist": 1417.24230029,
        "rate": 1,
        "osm": "way/783648386",
        "wikidata": "Q88289892",
        "kinds": "cultural,cinemas,theatres_and_entertainments,interesting_places"
      }
    },
    {
      "type": "Feature",
      "id": "11500630",
      "geometry": {
        "type": "Point",
        "coordinates": [
          -96.806633,
          32.7867279
        ]
      },
      "properties": {
        "xid": "W618964796",
        "name": "Perot Museum of Nature and Science",
        "dist": 1435.99054429,
        "rate": 3,
        "osm": "way/618964796",
        "wikidata": "Q7169478",
        "kinds": "science_museums,cultural,museums,interesting_places"
      }
    },
    {
      "type": "Feature",
      "id": "10591105",
      "geometry": {
        "type": "Point",
        "coordinates": [
          -96.7825089,
          32.7811432
        ]
      },
      "properties": {
        "xid": "N356858603",
        "name": "Resurrection Center Assembly of God Church",
        "dist": 1444.79898415,
        "rate": 1,
        "osm": "node/356858603",
        "kinds": "religion,other_temples,interesting_places"
      }
    },
    {
      "type": "Feature",
      "id": "14696958",
      "geometry": {
        "type": "Point",
        "coordinates": [
          -96.8002472,
          32.7893867
        ]
      },
      "properties": {
        "xid": "Q6940697",
        "name": "Museum Tower",
        "dist": 1443.53321758,
        "rate": 3,
        "wikidata": "Q6940697",
        "kinds": "skyscrapers,architecture,interesting_places"
      }
    },
    {
      "type": "Feature",
      "id": "11467902",
      "geometry": {
        "type": "Point",
        "coordinates": [
          -96.7964172,
          32.7899818
        ]
      },
      "properties": {
        "xid": "W361449421",
        "name": "Wyly Theatre",
        "dist": 1477.75809521,
        "rate": 3,
        "osm": "way/361449421",
        "wikidata": "Q5249965",
        "kinds": "cultural,theatres_and_entertainments,interesting_places,other_theatres"
      }
    },
    {
      "type": "Feature",
      "id": "11379038",
      "geometry": {
        "type": "Point",
        "coordinates": [
          -96.7986221,
          32.7899513
        ]
      },
      "properties": {
        "xid": "W28544900",
        "name": "Meyerson Symphony Center",
        "dist": 1481.42537447,
        "rate": 3,
        "osm": "way/28544900",
        "wikidata": "Q670323",
        "kinds": "theatres_and_entertainments,concert_halls,cultural,interesting_places"
      }
    },
    {
      "type": "Feature",
      "id": "10591534",
      "geometry": {
        "type": "Point",
        "coordinates": [
          -96.8013916,
          32.7895241
        ]
      },
      "properties": {
        "xid": "W655468255",
        "name": "",
        "dist": 1484.66966372,
        "rate": 0,
        "osm": "way/655468255",
        "kinds": "fountains,cultural,urban_environment,interesting_places"
      }
    },
    {
      "type": "Feature",
      "id": "14923125",
      "geometry": {
        "type": "Point",
        "coordinates": [
          -96.7975998,
          32.7901993
        ]
      },
      "properties": {
        "xid": "Q5353190",
        "name": "Elaine D. and Charles A. Sammons Park",
        "dist": 1502.22329838,
        "rate": 3,
        "wikidata": "Q5353190",
        "kinds": "gardens_and_parks,cultural,urban_environment,interesting_places"
      }
    },
    {
      "type": "Feature",
      "id": "5039576",
      "geometry": {
        "type": "Point",
        "coordinates": [
          -96.787056,
          32.7873878
        ]
      },
      "properties": {
        "xid": "W463994084",
        "name": "",
        "dist": 1510.07915752,
        "rate": 0,
        "osm": "way/463994084",
        "kinds": "religion,other_temples,interesting_places"
      }
    },
    {
      "type": "Feature",
      "id": "11688009",
      "geometry": {
        "type": "Point",
        "coordinates": [
          -96.8011703,
          32.7897949
        ]
      },
      "properties": {
        "xid": "W419524736",
        "name": "Klyde Warren Park",
        "dist": 1507.88300411,
        "rate": 3,
        "osm": "way/419524736",
        "wikidata": "Q6421555",
        "kinds": "urban_environment,gardens_and_parks,cultural,interesting_places"
      }
    },
    {
      "type": "Feature",
      "id": "5039556",
      "geometry": {
        "type": "Point",
        "coordinates": [
          -96.7828674,
          32.7697945
        ]
      },
      "properties": {
        "xid": "W465306345",
        "name": "",
        "dist": 1526.77631385,
        "rate": 0,
        "osm": "way/465306345",
        "kinds": "religion,other_temples,interesting_places"
      }
    },
    {
      "type": "Feature",
      "id": "5039557",
      "geometry": {
        "type": "Point",
        "coordinates": [
          -96.7829208,
          32.7696609
        ]
      },
      "properties": {
        "xid": "W465306350",
        "name": "",
        "dist": 1529.56013388,
        "rate": 0,
        "osm": "way/465306350",
        "kinds": "religion,other_temples,interesting_places"
      }
    },
    {
      "type": "Feature",
      "id": "5273791",
      "geometry": {
        "type": "Point",
        "coordinates": [
          -96.7868576,
          32.787487
        ]
      },
      "properties": {
        "xid": "W463994075",
        "name": "",
        "dist": 1530.00210203,
        "rate": 0,
        "osm": "way/463994075",
        "kinds": "religion,other_temples,interesting_places"
      }
    },
    {
      "type": "Feature",
      "id": "15368588",
      "geometry": {
        "type": "Point",
        "coordinates": [
          -96.786972,
          32.7876587
        ]
      },
      "properties": {
        "xid": "Q107330567",
        "name": "Church",
        "dist": 1538.33906023,
        "rate": 1,
        "wikidata": "Q107330567",
        "kinds": "religion,churches,interesting_places,other_churches"
      }
    },
    {
      "type": "Feature",
      "id": "10591532",
      "geometry": {
        "type": "Point",
        "coordinates": [
          -96.8066864,
          32.7882576
        ]
      },
      "properties": {
        "xid": "N5854341830",
        "name": "",
        "dist": 1574.05091924,
        "rate": 0,
        "osm": "node/5854341830",
        "kinds": "fountains,cultural,urban_environment,interesting_places"
      }
    },
    {
      "type": "Feature",
      "id": "11686581",
      "geometry": {
        "type": "Point",
        "coordinates": [
          -96.7958908,
          32.7908821
        ]
      },
      "properties": {
        "xid": "W361449425",
        "name": "Dallas City Performance Hall",
        "dist": 1580.11921761,
        "rate": 2,
        "osm": "way/361449425",
        "wikidata": "Q5123360",
        "kinds": "cultural,theatres_and_entertainments,interesting_places,other_theatres"
      }
    },
    {
      "type": "Feature",
      "id": "15606884",
      "geometry": {
        "type": "Point",
        "coordinates": [
          -96.7986984,
          32.7909012
        ]
      },
      "properties": {
        "xid": "Q4769118",
        "name": "Annette Strauss Square",
        "dist": 1586.88533022,
        "rate": 3,
        "wikidata": "Q4769118",
        "kinds": "theatres_and_entertainments,cultural,interesting_places,other_theatres"
      }
    },
    {
      "type": "Feature",
      "id": "11375635",
      "geometry": {
        "type": "Point",
        "coordinates": [
          -96.7980042,
          32.7909508
        ]
      },
      "properties": {
        "xid": "W179918603",
        "name": "Winspear Opera House",
        "dist": 1587.30546683,
        "rate": 3,
        "osm": "way/179918603",
        "wikidata": "Q5493322",
        "kinds": "cultural,theatres_and_entertainments,interesting_places,opera_houses"
      }
    },
    {
      "type": "Feature",
      "id": "15840158",
      "geometry": {
        "type": "Point",
        "coordinates": [
          -96.8102722,
          32.7859459
        ]
      },
      "properties": {
        "xid": "Q7093327",
        "name": "One Victory Park",
        "dist": 1614.75133743,
        "rate": 2,
        "wikidata": "Q7093327",
        "kinds": "skyscrapers,architecture,interesting_places"
      }
    },
    {
      "type": "Feature",
      "id": "11526774",
      "geometry": {
        "type": "Point",
        "coordinates": [
          -96.8097076,
          32.7866478
        ]
      },
      "properties": {
        "xid": "N6928675021",
        "name": "Cinepolis Luxury Cinemas",
        "dist": 1626.32473548,
        "rate": 1,
        "osm": "node/6928675021",
        "wikidata": "Q78802639",
        "kinds": "cultural,cinemas,theatres_and_entertainments,interesting_places"
      }
    },
    {
      "type": "Feature",
      "id": "14469030",
      "geometry": {
        "type": "Point",
        "coordinates": [
          -96.7953033,
          32.7919006
        ]
      },
      "properties": {
        "xid": "Q7092458",
        "name": "One Arts Plaza",
        "dist": 1697.0423614,
        "rate": 3,
        "wikidata": "Q7092458",
        "kinds": "skyscrapers,architecture,interesting_places"
      }
    },
    {
      "type": "Feature",
      "id": "14928610",
      "geometry": {
        "type": "Point",
        "coordinates": [
          -96.8090973,
          32.7882004
        ]
      },
      "properties": {
        "xid": "Q7958478",
        "name": "W Dallas Victory Hotel and Residences",
        "dist": 1710.02540562,
        "rate": 1,
        "wikidata": "Q7958478",
        "kinds": "skyscrapers,architecture,interesting_places"
      }
    },
    {
      "type": "Feature",
      "id": "5273779",
      "geometry": {
        "type": "Point",
        "coordinates": [
          -96.7963943,
          32.7921944
        ]
      },
      "properties": {
        "xid": "W471658464",
        "name": "St. Paul United Methodist Church",
        "dist": 1723.08235056,
        "rate": 1,
        "osm": "way/471658464",
        "kinds": "religion,other_temples,interesting_places"
      }
    },
    {
      "type": "Feature",
      "id": "14963037",
      "geometry": {
        "type": "Point",
        "coordinates": [
          -96.7847214,
          32.7883339
        ]
      },
      "properties": {
        "xid": "Q25339398",
        "name": "Wilson Block",
        "dist": 1730.63434174,
        "rate": 7,
        "wikidata": "Q25339398",
        "kinds": "historic,historical_places,interesting_places,historic_districts"
      }
    },
    {
      "type": "Feature",
      "id": "16202441",
      "geometry": {
        "type": "Point",
        "coordinates": [
          -96.7890244,
          32.7625923
        ]
      },
      "properties": {
        "xid": "Q42305057",
        "name": "Alameda Theater",
        "dist": 1729.70610796,
        "rate": 1,
        "wikidata": "Q42305057",
        "kinds": "architecture,historic_architecture,cinemas,cultural,theatres_and_entertainments,interesting_places,destroyed_objects"
      }
    },
    {
      "type": "Feature",
      "id": "14471041",
      "geometry": {
        "type": "Point",
        "coordinates": [
          -96.8100662,
          32.7884483
        ]
      },
      "properties": {
        "xid": "Q7927562",
        "name": "Victory Tower",
        "dist": 1791.50758711,
        "rate": 2,
        "wikidata": "Q7927562",
        "kinds": "skyscrapers,architecture,interesting_places"
      }
    },
    {
      "type": "Feature",
      "id": "14699190",
      "geometry": {
        "type": "Point",
        "coordinates": [
          -96.7960968,
          32.7928009
        ]
      },
      "properties": {
        "xid": "Q7858829",
        "name": "Two Arts Plaza",
        "dist": 1791.4025381,
        "rate": 2,
        "wikidata": "Q7858829",
        "kinds": "skyscrapers,architecture,interesting_places"
      }
    },
    {
      "type": "Feature",
      "id": "5039573",
      "geometry": {
        "type": "Point",
        "coordinates": [
          -96.7937698,
          32.7926903
        ]
      },
      "properties": {
        "xid": "W30912597",
        "name": "",
        "dist": 1802.61194689,
        "rate": 0,
        "osm": "way/30912597",
        "kinds": "religion,other_temples,interesting_places"
      }
    },
    {
      "type": "Feature",
      "id": "11680204",
      "geometry": {
        "type": "Point",
        "coordinates": [
          -96.7843323,
          32.7890549
        ]
      },
      "properties": {
        "xid": "W452935956",
        "name": "Central Square Park",
        "dist": 1815.09568127,
        "rate": 2,
        "osm": "way/452935956",
        "wikidata": "Q34919771",
        "kinds": "urban_environment,gardens_and_parks,cultural,interesting_places"
      }
    },
    {
      "type": "Feature",
      "id": "11619588",
      "geometry": {
        "type": "Point",
        "coordinates": [
          -96.8058319,
          32.7612419
        ]
      },
      "properties": {
        "xid": "N356851828",
        "name": "Trinity River Greenbelt Park",
        "dist": 1900.71887948,
        "rate": 2,
        "osm": "node/356851828",
        "wikidata": "Q31561391",
        "kinds": "urban_environment,gardens_and_parks,cultural,interesting_places"
      }
    },
    {
      "type": "Feature",
      "id": "4952717",
      "geometry": {
        "type": "Point",
        "coordinates": [
          -96.7989883,
          32.7942009
        ]
      },
      "properties": {
        "xid": "N368164988",
        "name": "Doll House Museum of the Southwest",
        "dist": 1953.90365759,
        "rate": 1,
        "osm": "node/368164988",
        "kinds": "cultural,museums,interesting_places,other_museums"
      }
    },
    {
      "type": "Feature",
      "id": "15973313",
      "geometry": {
        "type": "Point",
        "coordinates": [
          -96.7783737,
          32.7849541
        ]
      },
      "properties": {
        "xid": "Q42298683",
        "name": "Richardson Theater",
        "dist": 1971.2030971,
        "rate": 1,
        "wikidata": "Q42298683",
        "kinds": "cinemas,cultural,theatres_and_entertainments,interesting_places"
      }
    },
    {
      "type": "Feature",
      "id": "5039555",
      "geometry": {
        "type": "Point",
        "coordinates": [
          -96.7790222,
          32.7672806
        ]
      },
      "properties": {
        "xid": "W465306469",
        "name": "",
        "dist": 1979.15466794,
        "rate": 0,
        "osm": "way/465306469",
        "kinds": "religion,other_temples,interesting_places"
      }
    },
    {
      "type": "Feature",
      "id": "15059656",
      "geometry": {
        "type": "Point",
        "coordinates": [
          -96.778717,
          32.7856636
        ]
      },
      "properties": {
        "xid": "Q42298671",
        "name": "Crystal Theatre",
        "dist": 1981.59752892,
        "rate": 1,
        "wikidata": "Q42298671",
        "kinds": "cinemas,cultural,theatres_and_entertainments,interesting_places"
      }
    },
    {
      "type": "Feature",
      "id": "5039553",
      "geometry": {
        "type": "Point",
        "coordinates": [
          -96.7786789,
          32.7668724
        ]
      },
      "properties": {
        "xid": "N356855681",
        "name": "Dallas Masjid of al-Islam",
        "dist": 2030.33623794,
        "rate": 1,
        "osm": "node/356855681",
        "kinds": "religion,other_temples,interesting_places"
      }
    },
    {
      "type": "Feature",
      "id": "15385097",
      "geometry": {
        "type": "Point",
        "coordinates": [
          -96.7776489,
          32.7849808
        ]
      },
      "properties": {
        "xid": "Q7883714",
        "name": "Undermain Theatre",
        "dist": 2032.86898148,
        "rate": 2,
        "wikidata": "Q7883714",
        "kinds": "theatres_and_entertainments,cultural,interesting_places,other_theatres"
      }
    },
    {
      "type": "Feature",
      "id": "10591568",
      "geometry": {
        "type": "Point",
        "coordinates": [
          -96.7866211,
          32.7927399
        ]
      },
      "properties": {
        "xid": "N4630118966",
        "name": "Chrome Owl Statue",
        "dist": 2030.01552892,
        "rate": 1,
        "osm": "node/4630118966",
        "kinds": "cultural,urban_environment,interesting_places,sculptures"
      }
    },
    {
      "type": "Feature",
      "id": "15161328",
      "geometry": {
        "type": "Point",
        "coordinates": [
          -96.7949982,
          32.7949982
        ]
      },
      "properties": {
        "xid": "Q11810337",
        "name": "Parafia w. Piotra Apostoa w Dallas",
        "dist": 2041.96153316,
        "rate": 2,
        "wikidata": "Q11810337",
        "kinds": "religion,other_temples,interesting_places"
      }
    },
    {
      "type": "Feature",
      "id": "14470410",
      "geometry": {
        "type": "Point",
        "coordinates": [
          -96.8000031,
          32.7949982
        ]
      },
      "properties": {
        "xid": "Q7603584",
        "name": "State Thomas, Dallas",
        "dist": 2052.93616875,
        "rate": 2,
        "wikidata": "Q7603584",
        "kinds": "historic,historical_places,interesting_places,historic_districts"
      }
    },
    {
      "type": "Feature",
      "id": "5039575",
      "geometry": {
        "type": "Point",
        "coordinates": [
          -96.7951508,
          32.7951584
        ]
      },
      "properties": {
        "xid": "W221394535",
        "name": "",
        "dist": 2058.19280009,
        "rate": 0,
        "osm": "way/221394535",
        "kinds": "religion,other_temples,interesting_places"
      }
    },
    {
      "type": "Feature",
      "id": "5273784",
      "geometry": {
        "type": "Point",
        "coordinates": [
          -96.7949448,
          32.7952003
        ]
      },
      "properties": {
        "xid": "W221394536",
        "name": "",
        "dist": 2064.75533832,
        "rate": 0,
        "osm": "way/221394536",
        "kinds": "religion,other_temples,interesting_places"
      }
    },
    {
      "type": "Feature",
      "id": "15610303",
      "geometry": {
        "type": "Point",
        "coordinates": [
          -96.8002777,
          32.7952766
        ]
      },
      "properties": {
        "xid": "Q6119498",
        "name": "Jacob and Eliza Spake House",
        "dist": 2087.16471368,
        "rate": 7,
        "wikidata": "Q6119498",
        "kinds": "historic_architecture,architecture,interesting_places,other_buildings_and_structures"
      }
    },
    {
      "type": "Feature",
      "id": "5039574",
      "geometry": {
        "type": "Point",
        "coordinates": [
          -96.7955246,
          32.7954788
        ]
      },
      "properties": {
        "xid": "W221394540",
        "name": "",
        "dist": 2091.08575293,
        "rate": 0,
        "osm": "way/221394540",
        "kinds": "religion,other_temples,interesting_places"
      }
    },
    {
      "type": "Feature",
      "id": "15060265",
      "geometry": {
        "type": "Point",
        "coordinates": [
          -96.8052139,
          32.7942696
        ]
      },
      "properties": {
        "xid": "Q42298711",
        "name": "Peekers Theatre",
        "dist": 2098.9829319,
        "rate": 1,
        "wikidata": "Q42298711",
        "kinds": "architecture,historic_architecture,cinemas,cultural,theatres_and_entertainments,interesting_places,destroyed_objects"
      }
    },
    {
      "type": "Feature",
      "id": "5273790",
      "geometry": {
        "type": "Point",
        "coordinates": [
          -96.7951584,
          32.7955551
        ]
      },
      "properties": {
        "xid": "W221394539",
        "name": "",
        "dist": 2102.20604925,
        "rate": 0,
        "osm": "way/221394539",
        "kinds": "religion,other_temples,interesting_places"
      }
    },
    {
      "type": "Feature",
      "id": "10591471",
      "geometry": {
        "type": "Point",
        "coordinates": [
          -96.8181152,
          32.7834053
        ]
      },
      "properties": {
        "xid": "N356855077",
        "name": "Christian Congregation Church",
        "dist": 2115.62346654,
        "rate": 1,
        "osm": "node/356855077",
        "kinds": "religion,other_temples,interesting_places"
      }
    },
    {
      "type": "Feature",
      "id": "10590167",
      "geometry": {
        "type": "Point",
        "coordinates": [
          -96.7802963,
          32.7637253
        ]
      },
      "properties": {
        "xid": "W465306569",
        "name": "",
        "dist": 2122.49336746,
        "rate": 0,
        "osm": "way/465306569",
        "kinds": "religion,other_temples,interesting_places"
      }
    },
    {
      "type": "Feature",
      "id": "11479921",
      "geometry": {
        "type": "Point",
        "coordinates": [
          -96.7852631,
          32.7930489
        ]
      },
      "properties": {
        "xid": "W30828024",
        "name": "Exall Park",
        "dist": 2123.44956276,
        "rate": 2,
        "osm": "way/30828024",
        "wikidata": "Q49487801",
        "kinds": "urban_environment,gardens_and_parks,cultural,interesting_places"
      }
    },
    {
      "type": "Feature",
      "id": "5273690",
      "geometry": {
        "type": "Point",
        "coordinates": [
          -96.780304,
          32.7634697
        ]
      },
      "properties": {
        "xid": "W465306578",
        "name": "",
        "dist": 2141.23905486,
        "rate": 0,
        "osm": "way/465306578",
        "kinds": "religion,other_temples,interesting_places"
      }
    },
    {
      "type": "Feature",
      "id": "10591095",
      "geometry": {
        "type": "Point",
        "coordinates": [
          -96.7774124,
          32.7663002
        ]
      },
      "properties": {
        "xid": "W465306504",
        "name": "",
        "dist": 2164.7874209,
        "rate": 0,
        "osm": "way/465306504",
        "kinds": "religion,other_temples,interesting_places"
      }
    },
    {
      "type": "Feature",
      "id": "14504633",
      "geometry": {
        "type": "Point",
        "coordinates": [
          -96.77565,
          32.7848244
        ]
      },
      "properties": {
        "xid": "Q24884277",
        "name": "Chevrolet Motor Company Building",
        "dist": 2194.58862774,
        "rate": 7,
        "wikidata": "Q24884277",
        "kinds": "industrial_facilities,factories,interesting_places"
      }
    },
    {
      "type": "Feature",
      "id": "11308235",
      "geometry": {
        "type": "Point",
        "coordinates": [
          -96.8096542,
          32.7932549
        ]
      },
      "properties": {
        "xid": "W312168242",
        "name": "Pike Park",
        "dist": 2189.07766675,
        "rate": 2,
        "osm": "way/312168242",
        "wikidata": "Q49542595",
        "kinds": "urban_environment,gardens_and_parks,cultural,interesting_places"
      }
    },
    {
      "type": "Feature",
      "id": "10589968",
      "geometry": {
        "type": "Point",
        "coordinates": [
          -96.820015,
          32.7831612
        ]
      },
      "properties": {
        "xid": "W465671551",
        "name": "",
        "dist": 2274.47034242,
        "rate": 0,
        "osm": "way/465671551",
        "kinds": "architecture,historic_architecture,interesting_places,destroyed_objects"
      }
    },
    {
      "type": "Feature",
      "id": "5273694",
      "geometry": {
        "type": "Point",
        "coordinates": [
          -96.7791367,
          32.7627525
        ]
      },
      "properties": {
        "xid": "W465306602",
        "name": "",
        "dist": 2275.71366052,
        "rate": 0,
        "osm": "way/465306602",
        "kinds": "religion,other_temples,interesting_places"
      }
    },
    {
      "type": "Feature",
      "id": "5039552",
      "geometry": {
        "type": "Point",
        "coordinates": [
          -96.7791061,
          32.7627411
        ]
      },
      "properties": {
        "xid": "N356855505",
        "name": "Cornerstone Baptist Church",
        "dist": 2278.51958039,
        "rate": 1,
        "osm": "node/356855505",
        "kinds": "religion,other_temples,interesting_places"
      }
    },
    {
      "type": "Feature",
      "id": "7749898",
      "geometry": {
        "type": "Point",
        "coordinates": [
          -96.7792664,
          32.7625351
        ]
      },
      "properties": {
        "xid": "W465306606",
        "name": "",
        "dist": 2283.31033141,
        "rate": 0,
        "osm": "way/465306606",
        "kinds": "religion,other_temples,interesting_places"
      }
    },
    {
      "type": "Feature",
      "id": "11492716",
      "geometry": {
        "type": "Point",
        "coordinates": [
          -96.7944565,
          32.797245
        ]
      },
      "properties": {
        "xid": "W25856940",
        "name": "Griggs Park",
        "dist": 2294.831734,
        "rate": 2,
        "osm": "way/25856940",
        "wikidata": "Q49496461",
        "kinds": "urban_environment,gardens_and_parks,cultural,interesting_places"
      }
    },
    {
      "type": "Feature",
      "id": "7702111",
      "geometry": {
        "type": "Point",
        "coordinates": [
          -96.7873306,
          32.7957649
        ]
      },
      "properties": {
        "xid": "W464131049",
        "name": "",
        "dist": 2303.60235516,
        "rate": 0,
        "osm": "way/464131049",
        "kinds": "religion,other_temples,interesting_places"
      }
    },
    {
      "type": "Feature",
      "id": "15973308",
      "geometry": {
        "type": "Point",
        "coordinates": [
          -96.7921829,
          32.7975159
        ]
      },
      "properties": {
        "xid": "Q42298626",
        "name": "High School Theatre",
        "dist": 2355.93349301,
        "rate": 1,
        "wikidata": "Q42298626",
        "kinds": "architecture,historic_architecture,cinemas,cultural,theatres_and_entertainments,interesting_places,destroyed_objects"
      }
    },
    {
      "type": "Feature",
      "id": "16085494",
      "geometry": {
        "type": "Point",
        "coordinates": [
          -96.8218994,
          32.780201
        ]
      },
      "properties": {
        "xid": "Q17511031",
        "name": "Ronald Kirk Bridge",
        "dist": 2366.62846828,
        "rate": 7,
        "wikidata": "Q17511031",
        "kinds": "bridges,architecture,interesting_places,other_bridges"
      }
    },
    {
      "type": "Feature",
      "id": "6996197",
      "geometry": {
        "type": "Point",
        "coordinates": [
          -96.8080597,
          32.7573509
        ]
      },
      "properties": {
        "xid": "N356822928",
        "name": "Shiloh Baptist Church",
        "dist": 2379.63822993,
        "rate": 1,
        "osm": "node/356822928",
        "kinds": "religion,other_temples,interesting_places"
      }
    },
    {
      "type": "Feature",
      "id": "7749896",
      "geometry": {
        "type": "Point",
        "coordinates": [
          -96.8075104,
          32.7570953
        ]
      },
      "properties": {
        "xid": "W465298355",
        "name": "",
        "dist": 2383.78299832,
        "rate": 0,
        "osm": "way/465298355",
        "kinds": "religion,other_temples,interesting_places"
      }
    },
    {
      "type": "Feature",
      "id": "15150224",
      "geometry": {
        "type": "Point",
        "coordinates": [
          -96.8088989,
          32.796299
        ]
      },
      "properties": {
        "xid": "Q4833091",
        "name": "Azure",
        "dist": 2446.89000408,
        "rate": 1,
        "wikidata": "Q4833091",
        "kinds": "skyscrapers,architecture,interesting_places"
      }
    },
    {
      "type": "Feature",
      "id": "5039578",
      "geometry": {
        "type": "Point",
        "coordinates": [
          -96.7808304,
          32.7944336
        ]
      },
      "properties": {
        "xid": "W313286955",
        "name": "Chafer Chapel",
        "dist": 2484.74366682,
        "rate": 1,
        "osm": "way/313286955",
        "kinds": "religion,other_temples,interesting_places"
      }
    },
    {
      "type": "Feature",
      "id": "15745579",
      "geometry": {
        "type": "Point",
        "coordinates": [
          -96.7776337,
          32.7611542
        ]
      },
      "properties": {
        "xid": "Q42298727",
        "name": "White Theatre",
        "dist": 2499.39347478,
        "rate": 1,
        "wikidata": "Q42298727",
        "kinds": "architecture,historic_architecture,cinemas,cultural,theatres_and_entertainments,interesting_places,destroyed_objects"
      }
    },
    {
      "type": "Feature",
      "id": "7749897",
      "geometry": {
        "type": "Point",
        "coordinates": [
          -96.8080444,
          32.7561722
        ]
      },
      "properties": {
        "xid": "R6872950",
        "name": "",
        "dist": 2497.83655329,
        "rate": 0,
        "osm": "relation/6872950",
        "kinds": "religion,other_temples,interesting_places"
      }
    },
    {
      "type": "Feature",
      "id": "14831712",
      "geometry": {
        "type": "Point",
        "coordinates": [
          -96.77668,
          32.7619858
        ]
      },
      "properties": {
        "xid": "Q42298720",
        "name": "Colonial Theatre",
        "dist": 2504.17063997,
        "rate": 1,
        "wikidata": "Q42298720",
        "kinds": "cinemas,cultural,theatres_and_entertainments,interesting_places"
      }
    },
    {
      "type": "Feature",
      "id": "14698468",
      "geometry": {
        "type": "Point",
        "coordinates": [
          -96.7722244,
          32.768055
        ]
      },
      "properties": {
        "xid": "Q7566354",
        "name": "South BoulevardPark Row Historic District",
        "dist": 2509.0868343,
        "rate": 7,
        "wikidata": "Q7566354",
        "kinds": "historic,historical_places,interesting_places,historic_districts"
      }
    },
    {
      "type": "Feature",
      "id": "10591109",
      "geometry": {
        "type": "Point",
        "coordinates": [
          -96.7704086,
          32.7732048
        ]
      },
      "properties": {
        "xid": "W464807805",
        "name": "",
        "dist": 2519.27921883,
        "rate": 0,
        "osm": "way/464807805",
        "kinds": "religion,other_temples,interesting_places"
      }
    },
    {
      "type": "Feature",
      "id": "15289316",
      "geometry": {
        "type": "Point",
        "coordinates": [
          -96.7940445,
          32.7992172
        ]
      },
      "properties": {
        "xid": "Q42298713",
        "name": "State Theater",
        "dist": 2516.3003612,
        "rate": 1,
        "wikidata": "Q42298713",
        "kinds": "architecture,historic_architecture,cinemas,cultural,theatres_and_entertainments,interesting_places,destroyed_objects"
      }
    },
    {
      "type": "Feature",
      "id": "16202317",
      "geometry": {
        "type": "Point",
        "coordinates": [
          -96.7750778,
          32.7633705
        ]
      },
      "properties": {
        "xid": "Q42298722",
        "name": "Forest Theatre",
        "dist": 2527.09063721,
        "rate": 2,
        "wikidata": "Q42298722",
        "kinds": "cinemas,cultural,theatres_and_entertainments,interesting_places"
      }
    },
    {
      "type": "Feature",
      "id": "7197567",
      "geometry": {
        "type": "Point",
        "coordinates": [
          -96.7809372,
          32.7949944
        ]
      },
      "properties": {
        "xid": "W903642078",
        "name": "",
        "dist": 2528.2087294,
        "rate": 0,
        "osm": "way/903642078",
        "kinds": "cultural,urban_environment,interesting_places,sculptures"
      }
    },
    {
      "type": "Feature",
      "id": "10591112",
      "geometry": {
        "type": "Point",
        "coordinates": [
          -96.7702789,
          32.7729073
        ]
      },
      "properties": {
        "xid": "N356824610",
        "name": "Faith Cumberland Presbyterian Church",
        "dist": 2536.86809808,
        "rate": 1,
        "osm": "node/356824610",
        "kinds": "religion,other_temples,interesting_places"
      }
    },
    {
      "type": "Feature",
      "id": "5273667",
      "geometry": {
        "type": "Point",
        "coordinates": [
          -96.8073502,
          32.755455
        ]
      },
      "properties": {
        "xid": "W465298376",
        "name": "",
        "dist": 2544.4617442,
        "rate": 0,
        "osm": "way/465298376",
        "kinds": "religion,other_temples,interesting_places"
      }
    },
    {
      "type": "Feature",
      "id": "15415660",
      "geometry": {
        "type": "Point",
        "coordinates": [
          -96.7712021,
          32.7845001
        ]
      },
      "properties": {
        "xid": "Q21016266",
        "name": "The Power Station",
        "dist": 2567.44442795,
        "rate": 2,
        "wikidata": "Q21016266",
        "kinds": "museums,cultural,interesting_places,art_galleries"
      }
    },
    {
      "type": "Feature",
      "id": "10591099",
      "geometry": {
        "type": "Point",
        "coordinates": [
          -96.7725677,
          32.7661514
        ]
      },
      "properties": {
        "xid": "W464807345",
        "name": "",
        "dist": 2568.22908835,
        "rate": 0,
        "osm": "way/464807345",
        "kinds": "religion,other_temples,interesting_places"
      }
    },